{
  "universities": [
    {
      "id": "omu",
      "name": "Ondokuz Mayıs University",
      "city": "Samsun",
      "lat": 41.2903,
      "lng": 36.3336,
      "departments": [
        {
          "name": "General",
          "partners": [
            {
              "name": "Université de Liège",
              "country": "Belgium",
              "lat": 50.6397,
              "lng": 5.5706,
              "department": "General"
            },
            {
              "name": "University of Zadar",
              "country": "Croatia",
              "lat": 44.117,
              "lng": 15.2355,
              "department": "General"
            },
            {
              "name": "University of South Bohemia in Ceske Budejovice",
              "country": "Czechia",
              "lat": 48.9747,
              "lng": 14.4747,
              "department": "General"
            },
            {
              "name": "Palacký University Olomouc",
              "country": "Czechia",
              "lat": 49.5939,
              "lng": 17.2508,
              "department": "General"
            },
            {
              "name": "University of Southern Denmark",
              "country": "Denmark",
              "lat": 55.4004,
              "lng": 10.3833,
              "department": "General"
            },
            {
              "name": "Université de Bordeaux",
              "country": "France",
              "lat": 44.84,
              "lng": -0.58,
              "department": "General"
            },
            {
              "name": "Universitat Kassel",
              "country": "Germany",
              "lat": 51.3158,
              "lng": 9.4979,
              "department": "General"
            },
            {
              "name": "Freie Universität Berlin",
              "country": "Germany",
              "lat": 52.52,
              "lng": 13.405,
              "department": "General"
            },
            {
              "name": "Universitat Münster",
              "country": "Germany",
              "lat": 51.9625,
              "lng": 7.6256,
              "department": "General"
            },
            {
              "name": "Hochschule Düsseldorf",
              "country": "Germany",
              "lat": 51.2256,
              "lng": 6.7767,
              "department": "University of Applied Sciences"
            },
            {
              "name": "University of Patras",
              "country": "Greece",
              "lat": 38.25,
              "lng": 21.7333,
              "department": "General"
            },
            {
              "name": "University of Debrecen",
              "country": "Hungary",
              "lat": 47.53,
              "lng": 21.6392,
              "department": "General"
            },
            {
              "name": "Università degli Studi di Torino",
              "country": "Italy",
              "lat": 45.0792,
              "lng": 7.6761,
              "department": "General"
            },
            {
              "name": "Università degli Studi di Milano",
              "country": "Italy",
              "lat": 45.4669,
              "lng": 9.19,
              "department": "General"
            },
            {
              "name": "Università degli Studi di Foggia",
              "country": "Italy",
              "lat": 41.4584,
              "lng": 15.5519,
              "department": "General"
            },
            {
              "name": "Riga Technical University",
              "country": "Latvia",
              "lat": 56.9475,
              "lng": 24.1069,
              "department": "General"
            },
            {
              "name": "Bialystok University of Technology",
              "country": "Poland",
              "lat": 53.1353,
              "lng": 23.1456,
              "department": "General"
            },
            {
              "name": "University of Gdansk",
              "country": "Poland",
              "lat": 54.3475,
              "lng": 18.6453,
              "department": "General"
            },
            {
              "name": "Universidade do Porto",
              "country": "Portugal",
              "lat": 41.1495,
              "lng": -8.6108,
              "department": "General"
            },
            {
              "name": "Universidade de Coimbra",
              "country": "Portugal",
              "lat": 40.2111,
              "lng": -8.4289,
              "department": "General"
            },
            {
              "name": "Ovidius University of Constanta",
              "country": "Romania",
              "lat": 44.1667,
              "lng": 28.6333,
              "department": "General"
            },
            {
              "name": "Alexandru Ioan Cuza University of Iaşi",
              "country": "Romania",
              "lat": 47.1622,
              "lng": 27.5889,
              "department": "General"
            },
            {
              "name": "University of Oradea",
              "country": "Romania",
              "lat": 47.0722,
              "lng": 21.9211,
              "department": "General"
            },
            {
              "name": "Technical University of Kosice",
              "country": "Slovakia",
              "lat": 48.7167,
              "lng": 21.25,
              "department": "General"
            },
            {
              "name": "Slovak University of Technology in Bratislava",
              "country": "Slovakia",
              "lat": 48.1447,
              "lng": 17.1128,
              "department": "General"
            },
            {
              "name": "Universidad de León",
              "country": "Spain",
              "lat": 42.6056,
              "lng": -5.57,
              "department": "General"
            },
            {
              "name": "Universitat de Barcelona",
              "country": "Spain",
              "lat": 41.3833,
              "lng": 2.1833,
              "department": "General"
            },
            {
              "name": "Universidad de Sevilla",
              "country": "Spain",
              "lat": 37.39,
              "lng": -5.99,
              "department": "General"
            },
            {
              "name": "Universidad Complutense de Madrid",
              "country": "Spain",
              "lat": 40.4169,
              "lng": -3.7033,
              "department": "General"
            },
            {
              "name": "Technische Universiteit Eindhoven",
              "country": "Netherlands",
              "lat": 51.4344,
              "lng": 5.4842,
              "department": "General"
            }
          ]
        },
        {
          "name": "Agriculture",
          "partners": [
            {
              "name": "Agricultural University Plovdiv",
              "country": "Bulgaria",
              "lat": 42.1434,
              "lng": 24.751,
              "department": "Agriculture"
            },
            {
              "name": "University of Szeged",
              "country": "Hungary",
              "lat": 46.25,
              "lng": 20.1667,
              "department": "Faculty of Agriculture"
            }
          ]
        },
        {
          "name": "Electrical Engineering",
          "partners": [
            {
              "name": "University of Ruse Angel Kanchev",
              "country": "Bulgaria",
              "lat": 43.8445,
              "lng": 25.9539,
              "department": "Electrical Engineering"
            },
            {
              "name": "Universidad de Oviedo",
              "country": "Spain",
              "lat": 43.36,
              "lng": -5.845,
              "department": "Electrical Engineering"
            }
          ]
        },
        {
          "name": "Education",
          "partners": [
            {
              "name": "Josip Juraj Strossmayer University of Osijek",
              "country": "Croatia",
              "lat": 45.5603,
              "lng": 18.6703,
              "department": "Faculty of Education"
            }
          ]
        },
        {
          "name": "Environmental Sciences",
          "partners": [
            {
              "name": "Czech University of Life Sciences",
              "country": "Czechia",
              "lat": 50.0875,
              "lng": 14.4214,
              "department": "Faculty of Environmental Sciences"
            }
          ]
        },
        {
          "name": "Engineering",
          "partners": [
            {
              "name": "Technical University of Liberec",
              "country": "Czechia",
              "lat": 50.7667,
              "lng": 15.0667,
              "department": "Faculty of Engineering"
            },
            {
              "name": "Politehnica University of Bucharest",
              "country": "Romania",
              "lat": 44.4325,
              "lng": 26.1039,
              "department": "General"
            },
            {
              "name": "Vilnius Gediminas Technical University",
              "country": "Lithuania",
              "lat": 54.6872,
              "lng": 25.28,
              "department": "General"
            }
          ]
        },
        {
          "name": "Technology",
          "partners": [
            {
              "name": "Brno University of Technology",
              "country": "Czechia",
              "lat": 49.1925,
              "lng": 16.6083,
              "department": "General"
            },
            {
              "name": "Rezekne Academy of Technologies",
              "country": "Latvia",
              "lat": 56.5067,
              "lng": 27.3308,
              "department": "General"
            }
          ]
        },
        {
          "name": "Informatics",
          "partners": [
            {
              "name": "Tomas Bata University in Zlin",
              "country": "Czechia",
              "lat": 49.2331,
              "lng": 17.6669,
              "department": "Faculty of Applied Informatics"
            }
          ]
        },
        {
          "name": "Music",
          "partners": [
            {
              "name": "Estonian Academy of Music and Theatre",
              "country": "Estonia",
              "lat": 59.4372,
              "lng": 24.7453,
              "department": "Music"
            }
          ]
        },
        {
          "name": "Health",
          "partners": [
            {
              "name": "Tallinn Health Care College",
              "country": "Estonia",
              "lat": 59.4372,
              "lng": 24.7453,
              "department": "Health Sciences"
            }
          ]
        },
        {
          "name": "Middle Eastern Studies",
          "partners": [
            {
              "name": "Philipps Universität Marburg",
              "country": "Germany",
              "lat": 50.81,
              "lng": 8.7708,
              "department": "Center for Near and Middle Eastern Studies"
            }
          ]
        },
        {
          "name": "Business",
          "partners": [
            {
              "name": "University of West Attica",
              "country": "Greece",
              "lat": 37.9842,
              "lng": 23.7281,
              "department": "Department of Business Administration"
            }
          ]
        },
        {
          "name": "Languages",
          "partners": [
            {
              "name": "Adam Mickiewicz University in Poznań",
              "country": "Poland",
              "lat": 52.4083,
              "lng": 16.9336,
              "department": "Faculty of Modern Languages"
            }
          ]
        },
        {
          "name": "Biology",
          "partners": [
            {
              "name": "University of Silesia in Katowice",
              "country": "Poland",
              "lat": 50.2625,
              "lng": 19.0217,
              "department": "Institute of Biology"
            },
            {
              "name": "Nicolaus Copernicus University of Torun",
              "country": "Poland",
              "lat": 53.0222,
              "lng": 18.6111,
              "department": "Faculty of Biological Sciences"
            },
            {
              "name": "Universidad de Salamanca",
              "country": "Spain",
              "lat": 40.965,
              "lng": -5.6642,
              "department": "Facultad de Biología"
            }
          ]
        },
        {
          "name": "Chemistry",
          "partners": [
            {
              "name": "Wroclaw University of Science and Technology",
              "country": "Poland",
              "lat": 51.11,
              "lng": 17.0325,
              "department": "Faculty of Chemistry"
            }
          ]
        },
        {
          "name": "Mathematics",
          "partners": [
            {
              "name": "University of Aveiro",
              "country": "Portugal",
              "lat": 40.6389,
              "lng": -8.6553,
              "department": "Department of Mathematics"
            }
          ]
        },
        {
          "name": "Architecture",
          "partners": [
            {
              "name": "Politehnica University Timisoara",
              "country": "Romania",
              "lat": 45.7597,
              "lng": 21.23,
              "department": "Faculty of Architecture"
            }
          ]
        },
        {
          "name": "Musicology",
          "partners": [
            {
              "name": "University of Ljubljana",
              "country": "Slovenia",
              "lat": 46.0514,
              "lng": 14.5061,
              "department": "Department of Musicology"
            }
          ]
        }
      ]
    },
    {
      "id": "anadolu",
      "name": "Anadolu University",
      "city": "Eskişehir",
      "lat": 39.7767,
      "lng": 30.5206,
      "departments": [
        {
          "name": "General",
          "partners": [
            {
              "name": "University of Hagen",
              "country": "Germany",
              "lat": 51.3667,
              "lng": 7.4833,
              "department": "General"
            },
            {
              "name": "Universidade Aberta",
              "country": "Portugal",
              "lat": 38.7122,
              "lng": -9.134,
              "department": "General"
            },
            {
              "name": "Eszterhazy Karoly Catholic University",
              "country": "Hungary",
              "lat": 47.8989,
              "lng": 20.3747,
              "department": "General"
            },
            {
              "name": "Polytechnic Institute of Porto",
              "country": "Portugal",
              "lat": 41.1495,
              "lng": -8.6108,
              "department": "General"
            },
            {
              "name": "Lund University",
              "country": "Sweden",
              "lat": 55.7058,
              "lng": 13.1932,
              "department": "General"
            },
            {
              "name": "University of Rzeszow",
              "country": "Poland",
              "lat": 50.0333,
              "lng": 22,
              "department": "General"
            },
            {
              "name": "Universität Hildesheim",
              "country": "Germany",
              "lat": 52.15,
              "lng": 9.95,
              "department": "General"
            },
            {
              "name": "Phillips-Universitat Marburg",
              "country": "Germany",
              "lat": 50.81,
              "lng": 8.7708,
              "department": "General"
            },
            {
              "name": "Universita degli Studi di Cagliari",
              "country": "Italy",
              "lat": 39.2167,
              "lng": 9.1167,
              "department": "General"
            },
            {
              "name": "Universita degli Studi G. d'Annunzio",
              "country": "Italy",
              "lat": 42.3511,
              "lng": 14.1674,
              "department": "General"
            },
            {
              "name": "Polytechnic Institute of Guarda",
              "country": "Portugal",
              "lat": 40.5364,
              "lng": -7.2683,
              "department": "General"
            },
            {
              "name": "Universidade de Lisboa",
              "country": "Portugal",
              "lat": 38.7122,
              "lng": -9.134,
              "department": "General"
            },
            {
              "name": "Karl-Franzens-Universitat Graz",
              "country": "Austria",
              "lat": 47.0708,
              "lng": 15.4386,
              "department": "General"
            },
            {
              "name": "University of Pardubice",
              "country": "Czechia",
              "lat": 50.0386,
              "lng": 15.7792,
              "department": "General"
            },
            {
              "name": "Ruhr-Universitat Bochum",
              "country": "Germany",
              "lat": 51.4819,
              "lng": 7.2158,
              "department": "General"
            },
            {
              "name": "Johannes Gutenberg Universitat Mainz",
              "country": "Germany",
              "lat": 49.9994,
              "lng": 8.2736,
              "department": "General"
            },
            {
              "name": "Adam Mickiewicz University",
              "country": "Poland",
              "lat": 52.4083,
              "lng": 16.9336,
              "department": "General"
            },
            {
              "name": "Alexandru Ioan Cuza University",
              "country": "Romania",
              "lat": 47.1622,
              "lng": 27.5889,
              "department": "General"
            },
            {
              "name": "University of Ljubljana",
              "country": "Slovenia",
              "lat": 46.0514,
              "lng": 14.5061,
              "department": "General"
            },
            {
              "name": "Universitat des Saarlandes",
              "country": "Germany",
              "lat": 49.2333,
              "lng": 7,
              "department": "General"
            },
            {
              "name": "University of Szeged",
              "country": "Hungary",
              "lat": 46.25,
              "lng": 20.1667,
              "department": "General"
            },
            {
              "name": "Daugavpils University",
              "country": "Latvia",
              "lat": 55.8714,
              "lng": 26.5161,
              "department": "General"
            },
            {
              "name": "Liepaja University",
              "country": "Latvia",
              "lat": 56.5083,
              "lng": 21.0111,
              "department": "General"
            },
            {
              "name": "University of Gdansk",
              "country": "Poland",
              "lat": 54.3475,
              "lng": 18.6453,
              "department": "General"
            },
            {
              "name": "Nicolaus Copernicus University",
              "country": "Poland",
              "lat": 53.0222,
              "lng": 18.6111,
              "department": "General"
            },
            {
              "name": "University of Valencia",
              "country": "Spain",
              "lat": 39.47,
              "lng": -0.3764,
              "department": "General"
            },
            {
              "name": "Universita degli Studi di Padova",
              "country": "Italy",
              "lat": 45.4064,
              "lng": 11.8778,
              "department": "General"
            },
            {
              "name": "Universidad de Granada",
              "country": "Spain",
              "lat": 37.1781,
              "lng": -3.6008,
              "department": "General"
            },
            {
              "name": "Plovdiv University",
              "country": "Bulgaria",
              "lat": 42.1434,
              "lng": 24.751,
              "department": "General"
            },
            {
              "name": "Konstantin Preslavsky University of Shumen",
              "country": "Bulgaria",
              "lat": 43.2746,
              "lng": 26.9349,
              "department": "General"
            },
            {
              "name": "Jagiellonian University",
              "country": "Poland",
              "lat": 50.0614,
              "lng": 19.9372,
              "department": "General"
            },
            {
              "name": "Ovidius University of Constanta",
              "country": "Romania",
              "lat": 44.1667,
              "lng": 28.6333,
              "department": "General"
            },
            {
              "name": "Universite de Reims Champagne-Ardenne",
              "country": "France",
              "lat": 49.2628,
              "lng": 4.0347,
              "department": "General"
            },
            {
              "name": "Goethe University Frankfurt",
              "country": "Germany",
              "lat": 50.1106,
              "lng": 8.6822,
              "department": "General"
            },
            {
              "name": "Ludwig-Maximilians-Universitat München",
              "country": "Germany",
              "lat": 48.1375,
              "lng": 11.575,
              "department": "General"
            },
            {
              "name": "Akademia Kujawsko-Pomorska",
              "country": "Poland",
              "lat": 53.1219,
              "lng": 18.0003,
              "department": "General"
            },
            {
              "name": "Pomeranian University in Slupsk",
              "country": "Poland",
              "lat": 54.4658,
              "lng": 17.0292,
              "department": "General"
            },
            {
              "name": "University of Craiova",
              "country": "Romania",
              "lat": 44.3333,
              "lng": 23.8167,
              "department": "General"
            },
            {
              "name": "Universitaet Paderborn",
              "country": "Germany",
              "lat": 51.7181,
              "lng": 8.7542,
              "department": "General"
            },
            {
              "name": "Universite de Rouen",
              "country": "France",
              "lat": 49.4428,
              "lng": 1.0886,
              "department": "General"
            },
            {
              "name": "Universitatea Babes-Bolyai",
              "country": "Romania",
              "lat": 46.7667,
              "lng": 23.5833,
              "department": "General"
            },
            {
              "name": "Jan Evangelista Purkyne University in Usti nad Labem",
              "country": "Czechia",
              "lat": 50.6583,
              "lng": 14.0417,
              "department": "General"
            },
            {
              "name": "Polytechnic Institute of Leiria",
              "country": "Portugal",
              "lat": 39.7431,
              "lng": -8.8069,
              "department": "General"
            },
            {
              "name": "Universidad de Santiago de Compostela",
              "country": "Spain",
              "lat": 42.8778,
              "lng": -8.5444,
              "department": "General"
            },
            {
              "name": "Universidad de Huelva",
              "country": "Spain",
              "lat": 37.25,
              "lng": -6.95,
              "department": "General"
            },
            {
              "name": "University of Murcia",
              "country": "Spain",
              "lat": 37.9861,
              "lng": -1.1303,
              "department": "General"
            },
            {
              "name": "Kodolanyi Janos University",
              "country": "Hungary",
              "lat": 47.191,
              "lng": 18.4108,
              "department": "General"
            },
            {
              "name": "Jan Dlugosz University in Czestochowa",
              "country": "Poland",
              "lat": 50.8,
              "lng": 19.1167,
              "department": "General"
            },
            {
              "name": "Karkonosze State University",
              "country": "Poland",
              "lat": 50.9033,
              "lng": 15.7344,
              "department": "General"
            },
            {
              "name": "University of Oradea",
              "country": "Romania",
              "lat": 47.0722,
              "lng": 21.9211,
              "department": "General"
            },
            {
              "name": "Universidade de Coimbra",
              "country": "Portugal",
              "lat": 40.2111,
              "lng": -8.4289,
              "department": "General"
            },
            {
              "name": "Universitaet zu Köln",
              "country": "Germany",
              "lat": 50.9364,
              "lng": 6.9528,
              "department": "General"
            },
            {
              "name": "University of Jaen",
              "country": "Spain",
              "lat": 37.7667,
              "lng": -3.7711,
              "department": "General"
            },
            {
              "name": "Niccolo Cusano University",
              "country": "Italy",
              "lat": 41.8931,
              "lng": 12.4828,
              "department": "General"
            },
            {
              "name": "University Stefan cel Mare Suceava",
              "country": "Romania",
              "lat": 47.6514,
              "lng": 26.2556,
              "department": "General"
            },
            {
              "name": "Universita degli Studi di Milano-Bicocca",
              "country": "Italy",
              "lat": 45.4669,
              "lng": 9.19,
              "department": "General"
            },
            {
              "name": "Mazovian Public University in Plock",
              "country": "Poland",
              "lat": 52.55,
              "lng": 19.7,
              "department": "General"
            },
            {
              "name": "Radom Academy of Economics",
              "country": "Poland",
              "lat": 51.4036,
              "lng": 21.1567,
              "department": "General"
            },
            {
              "name": "New Bulgarian University",
              "country": "Bulgaria",
              "lat": 42.6979,
              "lng": 23.3217,
              "department": "General"
            },
            {
              "name": "Kaunas University of Applied Sciences",
              "country": "Lithuania",
              "lat": 54.9,
              "lng": 23.9333,
              "department": "General"
            },
            {
              "name": "Volda University College",
              "country": "Norway",
              "lat": 62.15,
              "lng": 6.1,
              "department": "General"
            },
            {
              "name": "Universitat Ramon Llull",
              "country": "Spain",
              "lat": 41.3833,
              "lng": 2.1833,
              "department": "General"
            },
            {
              "name": "University of West Attica",
              "country": "Greece",
              "lat": 37.992,
              "lng": 23.678,
              "department": "General"
            },
            {
              "name": "University of West Hungary",
              "country": "Hungary",
              "lat": 47.6849,
              "lng": 16.5831,
              "department": "General"
            },
            {
              "name": "Vytautas Magnus University",
              "country": "Lithuania",
              "lat": 54.9,
              "lng": 23.9333,
              "department": "General"
            },
            {
              "name": "Inholland University of Applied Sciences",
              "country": "Netherlands",
              "lat": 52.08,
              "lng": 4.31,
              "department": "General"
            },
            {
              "name": "Catholic University of Lublin",
              "country": "Poland",
              "lat": 51.25,
              "lng": 22.5667,
              "department": "General"
            },
            {
              "name": "University of Wroclaw",
              "country": "Poland",
              "lat": 51.11,
              "lng": 17.0325,
              "department": "General"
            },
            {
              "name": "Universitatea Romano-Americana",
              "country": "Romania",
              "lat": 44.4325,
              "lng": 26.1039,
              "department": "General"
            },
            {
              "name": "University Dunarea de Jos of Galati",
              "country": "Romania",
              "lat": 45.4233,
              "lng": 28.0425,
              "department": "General"
            },
            {
              "name": "Constantin Brancusi University",
              "country": "Romania",
              "lat": 45.0342,
              "lng": 23.2747,
              "department": "General"
            },
            {
              "name": "Mendel University in Brno",
              "country": "Czechia",
              "lat": 49.1925,
              "lng": 16.6083,
              "department": "General"
            },
            {
              "name": "University of Finance and Administration",
              "country": "Czechia",
              "lat": 50.0875,
              "lng": 14.4214,
              "department": "General"
            },
            {
              "name": "Universitaet Kassel",
              "country": "Germany",
              "lat": 51.3158,
              "lng": 9.4979,
              "department": "General"
            },
            {
              "name": "Universidad de Extremadura",
              "country": "Spain",
              "lat": 38.8803,
              "lng": -6.9753,
              "department": "General"
            },
            {
              "name": "University of Leon",
              "country": "Spain",
              "lat": 42.6056,
              "lng": -5.57,
              "department": "General"
            },
            {
              "name": "Université de Lille",
              "country": "France",
              "lat": 50.6278,
              "lng": 3.0583,
              "department": "General"
            },
            {
              "name": "University of Rijeka",
              "country": "Croatia",
              "lat": 45.3333,
              "lng": 14.4333,
              "department": "General"
            },
            {
              "name": "Aspira College",
              "country": "Croatia",
              "lat": 43.51,
              "lng": 16.44,
              "department": "General"
            },
            {
              "name": "Czestochowa University of Technology",
              "country": "Poland",
              "lat": 50.8,
              "lng": 19.1167,
              "department": "General"
            },
            {
              "name": "Powislanski College in Kwidzyn",
              "country": "Poland",
              "lat": 53.7358,
              "lng": 18.9308,
              "department": "General"
            },
            {
              "name": "Lazarski University",
              "country": "Poland",
              "lat": 52.23,
              "lng": 21.0111,
              "department": "General"
            },
            {
              "name": "Matej Bel University",
              "country": "Slovakia",
              "lat": 48.7353,
              "lng": 19.1453,
              "department": "General"
            },
            {
              "name": "Haute Ecole de la Province de Liege",
              "country": "Belgium",
              "lat": 50.6397,
              "lng": 5.5706,
              "department": "General"
            },
            {
              "name": "FOM Hochschule",
              "country": "Germany",
              "lat": 51.4508,
              "lng": 7.0131,
              "department": "General"
            },
            {
              "name": "University of Applied Sciences Würzburg",
              "country": "Germany",
              "lat": 49.7833,
              "lng": 9.9333,
              "department": "General"
            },
            {
              "name": "Universidad de Valladolid",
              "country": "Spain",
              "lat": 41.6528,
              "lng": -4.7236,
              "department": "General"
            },
            {
              "name": "SMK University of Applied Social Sciences",
              "country": "Lithuania",
              "lat": 55.7125,
              "lng": 21.135,
              "department": "General"
            },
            {
              "name": "HZ University of Applied Sciences",
              "country": "Netherlands",
              "lat": 51.45,
              "lng": 3.5833,
              "department": "General"
            },
            {
              "name": "Polytechnic Institute of Santarem",
              "country": "Portugal",
              "lat": 39.2333,
              "lng": -8.6833,
              "department": "General"
            },
            {
              "name": "University of Bielsko-Biala",
              "country": "Poland",
              "lat": 49.8225,
              "lng": 19.0444,
              "department": "General"
            },
            {
              "name": "WSB University",
              "country": "Poland",
              "lat": 50.3214,
              "lng": 19.1872,
              "department": "General"
            },
            {
              "name": "Kalisz University",
              "country": "Poland",
              "lat": 51.7575,
              "lng": 18.08,
              "department": "General"
            },
            {
              "name": "Opole University of Technology",
              "country": "Poland",
              "lat": 50.6667,
              "lng": 17.9333,
              "department": "General"
            },
            {
              "name": "University of A Coruna",
              "country": "Spain",
              "lat": 43.365,
              "lng": -8.41,
              "department": "General"
            },
            {
              "name": "Aristotle University of Thessaloniki",
              "country": "Greece",
              "lat": 40.6403,
              "lng": 22.9356,
              "department": "General"
            },
            {
              "name": "Windesheim University of Applied Sciences",
              "country": "Netherlands",
              "lat": 52.5167,
              "lng": 6.1,
              "department": "General"
            },
            {
              "name": "University of Bucharest",
              "country": "Romania",
              "lat": 44.4325,
              "lng": 26.1039,
              "department": "General"
            },
            {
              "name": "Université de Savoie",
              "country": "France",
              "lat": 45.57,
              "lng": 5.9118,
              "department": "General"
            },
            {
              "name": "Budapest Metropolitan University",
              "country": "Hungary",
              "lat": 47.4983,
              "lng": 19.0408,
              "department": "General"
            },
            {
              "name": "Hochschule RheinMain",
              "country": "Germany",
              "lat": 50.0825,
              "lng": 8.24,
              "department": "General"
            },
            {
              "name": "Eotvos Lorand University",
              "country": "Hungary",
              "lat": 47.4983,
              "lng": 19.0408,
              "department": "General"
            },
            {
              "name": "Universita degli Studi di Foggia",
              "country": "Italy",
              "lat": 41.4584,
              "lng": 15.5519,
              "department": "General"
            },
            {
              "name": "South-West University Neofit Rilski",
              "country": "Bulgaria",
              "lat": 42.0227,
              "lng": 23.0975,
              "department": "General"
            },
            {
              "name": "University of Potsdam",
              "country": "Germany",
              "lat": 52.4006,
              "lng": 13.0592,
              "department": "General"
            },
            {
              "name": "Hochschule Düsseldorf",
              "country": "Germany",
              "lat": 51.2256,
              "lng": 6.7767,
              "department": "General"
            },
            {
              "name": "Alice Salomon Hochschule Berlin",
              "country": "Germany",
              "lat": 52.52,
              "lng": 13.405,
              "department": "General"
            },
            {
              "name": "Polytechnic Institute of Tomar",
              "country": "Portugal",
              "lat": 39.6,
              "lng": -8.4167,
              "department": "General"
            }
          ]
        },
        {
          "name": "Music",
          "partners": [
            {
              "name": "Estonian Academy of Music and Theatre",
              "country": "Estonia",
              "lat": 59.4372,
              "lng": 24.7453,
              "department": "Music"
            },
            {
              "name": "Conservatorio Superior de Música Manuel Castillo",
              "country": "Spain",
              "lat": 37.39,
              "lng": -5.99,
              "department": "Music"
            },
            {
              "name": "Conservatorio Superior de Música de Navarra",
              "country": "Spain",
              "lat": 42.8167,
              "lng": -1.65,
              "department": "Music"
            },
            {
              "name": "Conservatorio di Musica Stanislao Giacomantonio",
              "country": "Italy",
              "lat": 39.3,
              "lng": 16.25,
              "department": "Music"
            },
            {
              "name": "Conservatorio di Musica Lucio Campiani",
              "country": "Italy",
              "lat": 45.1564,
              "lng": 10.7911,
              "department": "Music"
            },
            {
              "name": "The Fryderyk Chopin University of Music",
              "country": "Poland",
              "lat": 52.23,
              "lng": 21.0111,
              "department": "Music"
            },
            {
              "name": "Staatliche Hochschule für Musik Trossingen",
              "country": "Germany",
              "lat": 48.0756,
              "lng": 8.6361,
              "department": "Music"
            },
            {
              "name": "Conservatorio Statale di Musica G. B. Pergolesi",
              "country": "Italy",
              "lat": 43.1604,
              "lng": 13.7181,
              "department": "Music"
            },
            {
              "name": "Conservatorio di Musica Luigi Cherubini",
              "country": "Italy",
              "lat": 43.7714,
              "lng": 11.2542,
              "department": "Music"
            },
            {
              "name": "Conservatorio Statale di Musica Giacomo Puccini",
              "country": "Italy",
              "lat": 44.108,
              "lng": 9.8289,
              "department": "Music"
            },
            {
              "name": "Conservatorio di Musica Giuseppe Nicolini",
              "country": "Italy",
              "lat": 45.05,
              "lng": 9.7,
              "department": "Music"
            },
            {
              "name": "Stella Vorarlberg Privathochschule für Musik",
              "country": "Austria",
              "lat": 47.2381,
              "lng": 9.5983,
              "department": "Music"
            },
            {
              "name": "Conservatorio di Musica Arcangelo Corelli",
              "country": "Italy",
              "lat": 38.1936,
              "lng": 15.5542,
              "department": "Music"
            },
            {
              "name": "Janacek Academy of Music and Performing Arts",
              "country": "Czechia",
              "lat": 49.1925,
              "lng": 16.6083,
              "department": "Music"
            },
            {
              "name": "Lithuanian Academy of Music and Theatre Arts",
              "country": "Lithuania",
              "lat": 54.6872,
              "lng": 25.28,
              "department": "Music"
            },
            {
              "name": "Akademia Muzyczna im. Grazyny i Kiejstuta Bacewiczow",
              "country": "Poland",
              "lat": 51.7769,
              "lng": 19.4547,
              "department": "Music"
            },
            {
              "name": "Conservatorio di Musica F.A. Bonporti",
              "country": "Italy",
              "lat": 46.0667,
              "lng": 11.1167,
              "department": "Music"
            }
          ]
        },
        {
          "name": "Arts",
          "partners": [
            {
              "name": "Artesis Plantijn Hogeschool Antwerpen",
              "country": "Belgium",
              "lat": 51.2178,
              "lng": 4.4003,
              "department": "General"
            },
            {
              "name": "Escola Superior de Arte Dramática of Galicia",
              "country": "Spain",
              "lat": 42.2314,
              "lng": -8.7124,
              "department": "Drama"
            },
            {
              "name": "Latvian Academy of Culture",
              "country": "Latvia",
              "lat": 56.9475,
              "lng": 24.1069,
              "department": "Culture"
            },
            {
              "name": "University of Arts in Poznan",
              "country": "Poland",
              "lat": 52.4083,
              "lng": 16.9336,
              "department": "Fine Arts"
            },
            {
              "name": "Accademia di Belle Arti di Carrara",
              "country": "Italy",
              "lat": 44.0833,
              "lng": 10.1,
              "department": "Fine Arts"
            },
            {
              "name": "Eugeniusz Geppert Academy of Art and Design",
              "country": "Poland",
              "lat": 51.11,
              "lng": 17.0325,
              "department": "Fine Arts"
            },
            {
              "name": "Escuela de Arte... de La Rioja",
              "country": "Spain",
              "lat": 42.465,
              "lng": -2.4456,
              "department": "Design"
            },
            {
              "name": "Estonian Academy of Arts",
              "country": "Estonia",
              "lat": 59.4372,
              "lng": 24.7453,
              "department": "Fine Arts"
            },
            {
              "name": "Upper School Art Design Marseille",
              "country": "France",
              "lat": 43.2964,
              "lng": 5.37,
              "department": "Fine Arts"
            },
            {
              "name": "Vilnius Academy of Arts",
              "country": "Lithuania",
              "lat": 54.6872,
              "lng": 25.28,
              "department": "Fine Arts"
            },
            {
              "name": "Escuela de Arte de Oviedo",
              "country": "Spain",
              "lat": 43.36,
              "lng": -5.845,
              "department": "Fine Arts"
            },
            {
              "name": "National College of Art and Design",
              "country": "Ireland",
              "lat": 53.3497,
              "lng": -6.2603,
              "department": "Fine Arts"
            },
            {
              "name": "Jan Matejko Academy of Fine Arts",
              "country": "Poland",
              "lat": 50.0614,
              "lng": 19.9372,
              "department": "Fine Arts"
            },
            {
              "name": "Prague Academy of Performing Arts",
              "country": "Czechia",
              "lat": 50.0875,
              "lng": 14.4214,
              "department": "Arts"
            }
          ]
        },
        {
          "name": "Theater",
          "partners": [
            {
              "name": "National Academy for Theater and Film Arts (NATFA)",
              "country": "Bulgaria",
              "lat": 42.6979,
              "lng": 23.3217,
              "department": "Theater"
            },
            {
              "name": "ENSATT",
              "country": "France",
              "lat": 45.76,
              "lng": 4.84,
              "department": "Theater"
            }
          ]
        },
        {
          "name": "Languages",
          "partners": [
            {
              "name": "Institut National des Langues et Civilisations Orientales",
              "country": "France",
              "lat": 48.8567,
              "lng": 2.3522,
              "department": "Languages"
            }
          ]
        },
        {
          "name": "Education",
          "partners": [
            {
              "name": "Freiburg University of Education",
              "country": "Germany",
              "lat": 47.995,
              "lng": 7.85,
              "department": "Education"
            },
            {
              "name": "Padagogische Hochschule Vorarlberg",
              "country": "Austria",
              "lat": 47.2381,
              "lng": 9.5983,
              "department": "Education"
            }
          ]
        },
        {
          "name": "Technology",
          "partners": [
            {
              "name": "Technische Universitaet Dresden",
              "country": "Germany",
              "lat": 51.05,
              "lng": 13.74,
              "department": "General"
            },
            {
              "name": "WSB-Technical University Ostrava",
              "country": "Czechia",
              "lat": 49.8356,
              "lng": 18.2925,
              "department": "General"
            }
          ]
        },
        {
          "name": "Economics",
          "partners": [
            {
              "name": "University of National and World Economy",
              "country": "Bulgaria",
              "lat": 42.6979,
              "lng": 23.3217,
              "department": "Economics"
            },
            {
              "name": "Poznan University of Economics",
              "country": "Poland",
              "lat": 52.4083,
              "lng": 16.9336,
              "department": "Economics"
            }
          ]
        },
        {
          "name": "Business",
          "partners": [
            {
              "name": "GEA College",
              "country": "Slovenia",
              "lat": 45.5283,
              "lng": 13.5683,
              "department": "Business"
            }
          ]
        },
        {
          "name": "Design",
          "partners": [
            {
              "name": "L'Ecole de design Nantes Atlantique",
              "country": "France",
              "lat": 47.2181,
              "lng": -1.5528,
              "department": "Design"
            },
            {
              "name": "Escola d'Art i Superior de Disseny Pau Gargallo",
              "country": "Spain",
              "lat": 41.4489,
              "lng": 2.2461,
              "department": "Design"
            }
          ]
        }
      ]
    },
    {
      "id": "istanbul",
      "name": "Istanbul University",
      "city": "Istanbul",
      "lat": 41.0136,
      "lng": 28.955,
      "departments": [
        {
          "name": "General",
          "partners": [
            {
              "name": "Universitaet Graz",
              "country": "Austria",
              "lat": 47.0708,
              "lng": 15.4386,
              "department": "General"
            },
            {
              "name": "Universitaet Innsbruck",
              "country": "Austria",
              "lat": 47.2683,
              "lng": 11.3933,
              "department": "General"
            },
            {
              "name": "Universitat Linz",
              "country": "Austria",
              "lat": 48.3058,
              "lng": 14.2864,
              "department": "General"
            },
            {
              "name": "Paris-Lodron-Universitat Salzburg",
              "country": "Austria",
              "lat": 47.8,
              "lng": 13.045,
              "department": "General"
            },
            {
              "name": "Universitat Wien",
              "country": "Austria",
              "lat": 48.2083,
              "lng": 16.3725,
              "department": "General"
            },
            {
              "name": "Fh-Campus Wien",
              "country": "Austria",
              "lat": 48.2083,
              "lng": 16.3725,
              "department": "General"
            },
            {
              "name": "Universiteit Antwerpen",
              "country": "Belgium",
              "lat": 51.2178,
              "lng": 4.4003,
              "department": "General"
            },
            {
              "name": "Vrije Universiteit Brussel",
              "country": "Belgium",
              "lat": 50.8467,
              "lng": 4.3525,
              "department": "General"
            },
            {
              "name": "Universiteit Gent",
              "country": "Belgium",
              "lat": 51.0536,
              "lng": 3.7253,
              "department": "General"
            },
            {
              "name": "Arteveldehogeschool",
              "country": "Belgium",
              "lat": 51.0536,
              "lng": 3.7253,
              "department": "General"
            },
            {
              "name": "Hogeschool PXL",
              "country": "Belgium",
              "lat": 50.9304,
              "lng": 5.3383,
              "department": "General"
            },
            {
              "name": "Katholieke Universiteit Leuven",
              "country": "Belgium",
              "lat": 50.86,
              "lng": 4.69,
              "department": "General"
            },
            {
              "name": "Universite De Liege",
              "country": "Belgium",
              "lat": 50.6397,
              "lng": 5.5706,
              "department": "General"
            },
            {
              "name": "Haute École De La Province De Liège",
              "country": "Belgium",
              "lat": 50.6397,
              "lng": 5.5706,
              "department": "General"
            },
            {
              "name": "Varna University Of Management",
              "country": "Bulgaria",
              "lat": 43.2114,
              "lng": 27.9111,
              "department": "General"
            },
            {
              "name": "South-West University Neofit Rilski",
              "country": "Bulgaria",
              "lat": 42.0227,
              "lng": 23.0975,
              "department": "General"
            },
            {
              "name": "University Of Ruse Angel Kanchev",
              "country": "Bulgaria",
              "lat": 43.8445,
              "lng": 25.9539,
              "department": "General"
            },
            {
              "name": "New Bulgarian University",
              "country": "Bulgaria",
              "lat": 42.6979,
              "lng": 23.3217,
              "department": "General"
            },
            {
              "name": "Sofia University St Kliment Ohridski",
              "country": "Bulgaria",
              "lat": 42.6979,
              "lng": 23.3217,
              "department": "General"
            },
            {
              "name": "Bulgarian Academy Of Sciences",
              "country": "Bulgaria",
              "lat": 42.6979,
              "lng": 23.3217,
              "department": "General"
            },
            {
              "name": "Trakia University",
              "country": "Bulgaria",
              "lat": 42.4333,
              "lng": 25.65,
              "department": "General"
            },
            {
              "name": "Masaryk University Of Brno",
              "country": "Czechia",
              "lat": 49.1925,
              "lng": 16.6083,
              "department": "General"
            },
            {
              "name": "University Of South Bohemia",
              "country": "Czechia",
              "lat": 48.9747,
              "lng": 14.4747,
              "department": "General"
            },
            {
              "name": "Technical University Of Ostrava",
              "country": "Czechia",
              "lat": 49.8356,
              "lng": 18.2925,
              "department": "General"
            },
            {
              "name": "University Of Ostrava",
              "country": "Czechia",
              "lat": 49.8356,
              "lng": 18.2925,
              "department": "General"
            },
            {
              "name": "Univerzita Pardubice",
              "country": "Czechia",
              "lat": 50.0386,
              "lng": 15.7792,
              "department": "General"
            },
            {
              "name": "University Of West Bohemia",
              "country": "Czechia",
              "lat": 49.7475,
              "lng": 13.3775,
              "department": "General"
            },
            {
              "name": "Czech University Of Life Sciences Prague",
              "country": "Czechia",
              "lat": 50.0875,
              "lng": 14.4214,
              "department": "General"
            },
            {
              "name": "Univerzita Karlova",
              "country": "Czechia",
              "lat": 50.0875,
              "lng": 14.4214,
              "department": "General"
            },
            {
              "name": "Ceske Vysoke Uceni Technicke V Praze",
              "country": "Czechia",
              "lat": 50.0875,
              "lng": 14.4214,
              "department": "General"
            },
            {
              "name": "Univerzita Tomase Bati Ve Zline",
              "country": "Czechia",
              "lat": 49.2331,
              "lng": 17.6669,
              "department": "General"
            },
            {
              "name": "Fachhochschule Bielefeld",
              "country": "Germany",
              "lat": 52.0211,
              "lng": 8.5347,
              "department": "General"
            },
            {
              "name": "Universitaet Augsburg",
              "country": "Germany",
              "lat": 48.3689,
              "lng": 10.8978,
              "department": "General"
            },
            {
              "name": "Freie Universitaet Berlin",
              "country": "Germany",
              "lat": 52.52,
              "lng": 13.405,
              "department": "General"
            },
            {
              "name": "Humboldt-Universitaet Zu Berlin",
              "country": "Germany",
              "lat": 52.52,
              "lng": 13.405,
              "department": "General"
            },
            {
              "name": "Universitaet Bielefeld",
              "country": "Germany",
              "lat": 52.0211,
              "lng": 8.5347,
              "department": "General"
            },
            {
              "name": "Ruhr-Universitaet Bochum",
              "country": "Germany",
              "lat": 51.4819,
              "lng": 7.2158,
              "department": "General"
            },
            {
              "name": "Universitaet Bonn",
              "country": "Germany",
              "lat": 50.7353,
              "lng": 7.1022,
              "department": "General"
            },
            {
              "name": "Hochschule Bonn-Rhein-Sieg",
              "country": "Germany",
              "lat": 50.77,
              "lng": 7.1867,
              "department": "General"
            },
            {
              "name": "Universitaet Bremen",
              "country": "Germany",
              "lat": 53.0758,
              "lng": 8.8072,
              "department": "General"
            },
            {
              "name": "Hochschule Bremerhaven",
              "country": "Germany",
              "lat": 53.55,
              "lng": 8.5833,
              "department": "General"
            },
            {
              "name": "Heinrich-Heine-Universitaet Duesseldorf",
              "country": "Germany",
              "lat": 51.2256,
              "lng": 6.7767,
              "department": "General"
            },
            {
              "name": "Universitaet Erlangen-Nuernberg",
              "country": "Germany",
              "lat": 49.5833,
              "lng": 11.0167,
              "department": "General"
            },
            {
              "name": "Goethe-Universitaet Frankfurt",
              "country": "Germany",
              "lat": 50.1106,
              "lng": 8.6822,
              "department": "General"
            },
            {
              "name": "Frankfurt University Of Applied Sciences",
              "country": "Germany",
              "lat": 50.1106,
              "lng": 8.6822,
              "department": "General"
            },
            {
              "name": "Universitaet Freiburg",
              "country": "Germany",
              "lat": 47.995,
              "lng": 7.85,
              "department": "General"
            },
            {
              "name": "Hochschule Furtwangen",
              "country": "Germany",
              "lat": 48.0503,
              "lng": 8.2092,
              "department": "General"
            },
            {
              "name": "Universitaet Giessen",
              "country": "Germany",
              "lat": 50.5833,
              "lng": 8.6667,
              "department": "General"
            },
            {
              "name": "Universitat Gottingen",
              "country": "Germany",
              "lat": 51.5339,
              "lng": 9.9356,
              "department": "General"
            },
            {
              "name": "Universitaet Hamburg",
              "country": "Germany",
              "lat": 53.55,
              "lng": 10,
              "department": "General"
            },
            {
              "name": "Kuhne Logistics University",
              "country": "Germany",
              "lat": 53.55,
              "lng": 10,
              "department": "General"
            },
            {
              "name": "Universitaet Hannover",
              "country": "Germany",
              "lat": 52.3667,
              "lng": 9.7167,
              "department": "General"
            },
            {
              "name": "Universitaet Heidelberg",
              "country": "Germany",
              "lat": 49.4167,
              "lng": 8.7167,
              "department": "General"
            },
            {
              "name": "Universitaet Kassel",
              "country": "Germany",
              "lat": 51.3158,
              "lng": 9.4979,
              "department": "General"
            },
            {
              "name": "University Of Cologne",
              "country": "Germany",
              "lat": 50.9364,
              "lng": 6.9528,
              "department": "General"
            },
            {
              "name": "Katholische Fachhochschule Nordrhein-Westfalen",
              "country": "Germany",
              "lat": 50.9364,
              "lng": 6.9528,
              "department": "General"
            },
            {
              "name": "Universitat Konstanz",
              "country": "Germany",
              "lat": 47.6667,
              "lng": 9.1833,
              "department": "General"
            },
            {
              "name": "Hochschule Magdeburg-Stendal",
              "country": "Germany",
              "lat": 52.1317,
              "lng": 11.6392,
              "department": "General"
            },
            {
              "name": "Universitat Mainz",
              "country": "Germany",
              "lat": 49.9994,
              "lng": 8.2736,
              "department": "General"
            },
            {
              "name": "University Of Mannheim",
              "country": "Germany",
              "lat": 49.4878,
              "lng": 8.4661,
              "department": "General"
            },
            {
              "name": "Universitaet Marburg",
              "country": "Germany",
              "lat": 50.81,
              "lng": 8.7708,
              "department": "General"
            },
            {
              "name": "Universitaet Muenchen",
              "country": "Germany",
              "lat": 48.1375,
              "lng": 11.575,
              "department": "General"
            },
            {
              "name": "University Of Münster",
              "country": "Germany",
              "lat": 51.9625,
              "lng": 7.6256,
              "department": "General"
            },
            {
              "name": "Universitaet Paderborn",
              "country": "Germany",
              "lat": 51.7181,
              "lng": 8.7542,
              "department": "General"
            },
            {
              "name": "Universitat Passau",
              "country": "Germany",
              "lat": 48.5744,
              "lng": 13.4647,
              "department": "General"
            },
            {
              "name": "Hochschule Pforzheim",
              "country": "Germany",
              "lat": 48.895,
              "lng": 8.705,
              "department": "General"
            },
            {
              "name": "Ravensburg University Of Cooperative Education",
              "country": "Germany",
              "lat": 47.7831,
              "lng": 9.6114,
              "department": "General"
            },
            {
              "name": "Universitaet Rostock",
              "country": "Germany",
              "lat": 54.0833,
              "lng": 12.1333,
              "department": "General"
            },
            {
              "name": "Universitat Des Saarlandes",
              "country": "Germany",
              "lat": 49.2333,
              "lng": 7,
              "department": "General"
            },
            {
              "name": "Universitat Trier",
              "country": "Germany",
              "lat": 49.7567,
              "lng": 6.6414,
              "department": "General"
            },
            {
              "name": "Universitaet Tuebingen",
              "country": "Germany",
              "lat": 48.52,
              "lng": 9.0556,
              "department": "General"
            },
            {
              "name": "Ostbayerische Technische Hochschule Amberg-Weiden",
              "country": "Germany",
              "lat": 49.4444,
              "lng": 11.8483,
              "department": "General"
            },
            {
              "name": "Hochschule Worms",
              "country": "Germany",
              "lat": 49.6319,
              "lng": 8.3665,
              "department": "General"
            },
            {
              "name": "Universitat Wurzburg",
              "country": "Germany",
              "lat": 49.7833,
              "lng": 9.9333,
              "department": "General"
            },
            {
              "name": "University Of Copenhagen",
              "country": "Denmark",
              "lat": 55.6805,
              "lng": 12.5615,
              "department": "General"
            },
            {
              "name": "Dania Academy",
              "country": "Denmark",
              "lat": 56.4607,
              "lng": 10.0364,
              "department": "General"
            },
            {
              "name": "Universidad De Alcala",
              "country": "Spain",
              "lat": 40.4667,
              "lng": -3.3667,
              "department": "General"
            },
            {
              "name": "Universidad De Almeria",
              "country": "Spain",
              "lat": 36.8417,
              "lng": -2.4639,
              "department": "General"
            },
            {
              "name": "Universitat De Barcelona",
              "country": "Spain",
              "lat": 41.3833,
              "lng": 2.1833,
              "department": "General"
            },
            {
              "name": "Universitat Ramon Llull",
              "country": "Spain",
              "lat": 41.3833,
              "lng": 2.1833,
              "department": "General"
            },
            {
              "name": "Universidad De Burgos",
              "country": "Spain",
              "lat": 42.35,
              "lng": -3.7067,
              "department": "General"
            },
            {
              "name": "Universidad De Castilla - La Mancha",
              "country": "Spain",
              "lat": 38.9833,
              "lng": -3.9167,
              "department": "General"
            },
            {
              "name": "Universitat De Girona",
              "country": "Spain",
              "lat": 41.9844,
              "lng": 2.8211,
              "department": "General"
            },
            {
              "name": "Universidad De Granada",
              "country": "Spain",
              "lat": 37.1781,
              "lng": -3.6008,
              "department": "General"
            },
            {
              "name": "Universidad Complutense De Madrid",
              "country": "Spain",
              "lat": 40.4169,
              "lng": -3.7033,
              "department": "General"
            },
            {
              "name": "Universidad Autonoma De Madrid",
              "country": "Spain",
              "lat": 40.4169,
              "lng": -3.7033,
              "department": "General"
            },
            {
              "name": "Universidad Rey Juan Carlos",
              "country": "Spain",
              "lat": 40.4169,
              "lng": -3.7033,
              "department": "General"
            },
            {
              "name": "Universidad De Malaga",
              "country": "Spain",
              "lat": 36.7194,
              "lng": -4.42,
              "department": "General"
            },
            {
              "name": "Universidad De Murcia",
              "country": "Spain",
              "lat": 37.9861,
              "lng": -1.1303,
              "department": "General"
            },
            {
              "name": "Universidad De Oviedo",
              "country": "Spain",
              "lat": 43.36,
              "lng": -5.845,
              "department": "General"
            },
            {
              "name": "Universidad Publica De Navarra",
              "country": "Spain",
              "lat": 42.8167,
              "lng": -1.65,
              "department": "General"
            },
            {
              "name": "Universidad De Salamanca",
              "country": "Spain",
              "lat": 40.965,
              "lng": -5.6642,
              "department": "General"
            },
            {
              "name": "Universidad De Santiago De Compostela",
              "country": "Spain",
              "lat": 42.8778,
              "lng": -8.5444,
              "department": "General"
            },
            {
              "name": "The Rovira I Virgili University",
              "country": "Spain",
              "lat": 41.1175,
              "lng": 1.2528,
              "department": "General"
            },
            {
              "name": "Universitat De Valencia",
              "country": "Spain",
              "lat": 39.47,
              "lng": -0.3764,
              "department": "General"
            },
            {
              "name": "Universidad De Vigo",
              "country": "Spain",
              "lat": 42.2314,
              "lng": -8.7124,
              "department": "General"
            },
            {
              "name": "University Of Zaragoza",
              "country": "Spain",
              "lat": 41.65,
              "lng": -0.8833,
              "department": "General"
            },
            {
              "name": "Fundacion Universidad San Jorge",
              "country": "Spain",
              "lat": 41.65,
              "lng": -0.8833,
              "department": "General"
            },
            {
              "name": "Tallinn University Of Technology",
              "country": "Estonia",
              "lat": 59.4372,
              "lng": 24.7453,
              "department": "General"
            },
            {
              "name": "Universite De Franche-Comte",
              "country": "France",
              "lat": 47.24,
              "lng": 6.02,
              "department": "General"
            },
            {
              "name": "Universite De Caen Normandie",
              "country": "France",
              "lat": 49.1814,
              "lng": -0.3636,
              "department": "General"
            },
            {
              "name": "Cy Cergy Paris University",
              "country": "France",
              "lat": 49.0361,
              "lng": 2.0631,
              "department": "General"
            },
            {
              "name": "Université Grenoble Alpes",
              "country": "France",
              "lat": 45.1715,
              "lng": 5.7224,
              "department": "General"
            },
            {
              "name": "Excelia Group",
              "country": "France",
              "lat": 46.16,
              "lng": -1.15,
              "department": "General"
            },
            {
              "name": "Universite De Limoges",
              "country": "France",
              "lat": 45.8353,
              "lng": 1.2625,
              "department": "General"
            },
            {
              "name": "Universite Lumiere Lyon 2",
              "country": "France",
              "lat": 45.76,
              "lng": 4.84,
              "department": "General"
            },
            {
              "name": "Universite D'aix Marseille",
              "country": "France",
              "lat": 43.2964,
              "lng": 5.37,
              "department": "General"
            },
            {
              "name": "Orleans University",
              "country": "France",
              "lat": 47.9025,
              "lng": 1.909,
              "department": "General"
            },
            {
              "name": "Universite Paris Nanterre",
              "country": "France",
              "lat": 48.8988,
              "lng": 2.1969,
              "department": "General"
            },
            {
              "name": "Universite Paris 13",
              "country": "France",
              "lat": 48.8567,
              "lng": 2.3522,
              "department": "General"
            },
            {
              "name": "Universite De Paris",
              "country": "France",
              "lat": 48.8567,
              "lng": 2.3522,
              "department": "General"
            },
            {
              "name": "Universite Paris XII Val De Marne",
              "country": "France",
              "lat": 48.7911,
              "lng": 2.4628,
              "department": "General"
            },
            {
              "name": "Rennes School Of Business",
              "country": "France",
              "lat": 48.1147,
              "lng": -1.6794,
              "department": "General"
            },
            {
              "name": "The University Of Rouen Normandy",
              "country": "France",
              "lat": 49.4428,
              "lng": 1.0886,
              "department": "General"
            },
            {
              "name": "University Of Strasbourg",
              "country": "France",
              "lat": 48.5833,
              "lng": 7.7458,
              "department": "General"
            },
            {
              "name": "University Of Toulouse-Jean Jaurès",
              "country": "France",
              "lat": 43.6045,
              "lng": 1.444,
              "department": "General"
            },
            {
              "name": "National And Kapodistrian University Of Athens",
              "country": "Greece",
              "lat": 37.9842,
              "lng": 23.7281,
              "department": "General"
            },
            {
              "name": "Ionian University",
              "country": "Greece",
              "lat": 39.6239,
              "lng": 19.9214,
              "department": "General"
            },
            {
              "name": "University Of West Attica",
              "country": "Greece",
              "lat": 37.992,
              "lng": 23.678,
              "department": "General"
            },
            {
              "name": "The University Of Ioannina",
              "country": "Greece",
              "lat": 39.6636,
              "lng": 20.8522,
              "department": "General"
            },
            {
              "name": "Harokopio University",
              "country": "Greece",
              "lat": 37.95,
              "lng": 23.7,
              "department": "General"
            },
            {
              "name": "Democritus University Of Thrace",
              "country": "Greece",
              "lat": 41.1219,
              "lng": 25.4042,
              "department": "General"
            },
            {
              "name": "The Aristotle University Of Thessaloniki",
              "country": "Greece",
              "lat": 40.6403,
              "lng": 22.9356,
              "department": "General"
            },
            {
              "name": "University Of Macedonia",
              "country": "Greece",
              "lat": 40.6403,
              "lng": 22.9356,
              "department": "General"
            },
            {
              "name": "The International Hellenic University",
              "country": "Greece",
              "lat": 40.6403,
              "lng": 22.9356,
              "department": "General"
            },
            {
              "name": "University Of Thessaly",
              "country": "Greece",
              "lat": 39.3667,
              "lng": 22.9333,
              "department": "General"
            },
            {
              "name": "University Of Dubrovnik",
              "country": "Croatia",
              "lat": 42.6403,
              "lng": 18.1083,
              "department": "General"
            },
            {
              "name": "Juraj Dobrila University Of Pula",
              "country": "Croatia",
              "lat": 44.8703,
              "lng": 13.8456,
              "department": "General"
            },
            {
              "name": "University Of Rijeka",
              "country": "Croatia",
              "lat": 45.3333,
              "lng": 14.4333,
              "department": "General"
            },
            {
              "name": "University North",
              "country": "Croatia",
              "lat": 46.3081,
              "lng": 16.3378,
              "department": "General"
            },
            {
              "name": "Sveuciliste U Zagrebu",
              "country": "Croatia",
              "lat": 45.8131,
              "lng": 15.9772,
              "department": "General"
            },
            {
              "name": "Eotvos Lorand Tudomanyegyetem",
              "country": "Hungary",
              "lat": 47.4983,
              "lng": 19.0408,
              "department": "General"
            },
            {
              "name": "Karoli Gaspar Reformatus Egyetem",
              "country": "Hungary",
              "lat": 47.4983,
              "lng": 19.0408,
              "department": "General"
            },
            {
              "name": "Debreceni Egyetem",
              "country": "Hungary",
              "lat": 47.53,
              "lng": 21.6392,
              "department": "General"
            },
            {
              "name": "Szechenyi Istvan University",
              "country": "Hungary",
              "lat": 47.6842,
              "lng": 17.6344,
              "department": "General"
            },
            {
              "name": "Miskolci Egyetem",
              "country": "Hungary",
              "lat": 48.1,
              "lng": 20.7833,
              "department": "General"
            },
            {
              "name": "Pecsi Tudomanyegyetem",
              "country": "Hungary",
              "lat": 46.0708,
              "lng": 18.2331,
              "department": "General"
            },
            {
              "name": "Szegedi Tudomanyegyetem",
              "country": "Hungary",
              "lat": 46.25,
              "lng": 20.1667,
              "department": "General"
            },
            {
              "name": "Università Politecnica Delle Marche",
              "country": "Italy",
              "lat": 43.6167,
              "lng": 13.5167,
              "department": "General"
            },
            {
              "name": "Alma Mater Studiorum -Universita Di Bologna",
              "country": "Italy",
              "lat": 44.4939,
              "lng": 11.3428,
              "department": "General"
            },
            {
              "name": "Università Degli Studi Di Cassino",
              "country": "Italy",
              "lat": 41.4917,
              "lng": 13.8333,
              "department": "General"
            },
            {
              "name": "Università Degli Studi Gabriele D'annunzio",
              "country": "Italy",
              "lat": 42.3511,
              "lng": 14.1674,
              "department": "General"
            },
            {
              "name": "Università Degli Studi Di Firenze",
              "country": "Italy",
              "lat": 43.7714,
              "lng": 11.2542,
              "department": "General"
            },
            {
              "name": "Università Del Salento",
              "country": "Italy",
              "lat": 40.352,
              "lng": 18.1691,
              "department": "General"
            },
            {
              "name": "Università Degli Studi Di Messina",
              "country": "Italy",
              "lat": 38.1936,
              "lng": 15.5542,
              "department": "General"
            },
            {
              "name": "Universita' Degli Studi Di Milano-Bicocca",
              "country": "Italy",
              "lat": 45.4669,
              "lng": 9.19,
              "department": "General"
            },
            {
              "name": "Università Degli Studi Di Modena E Reggio Emilia",
              "country": "Italy",
              "lat": 44.6458,
              "lng": 10.9257,
              "department": "General"
            },
            {
              "name": "Università Degli Studi Di Napoli Federico Ii",
              "country": "Italy",
              "lat": 40.8358,
              "lng": 14.2486,
              "department": "General"
            },
            {
              "name": "Università Degli Studi Di Napoli L'orientale",
              "country": "Italy",
              "lat": 40.8358,
              "lng": 14.2486,
              "department": "General"
            },
            {
              "name": "Università Degli Studi Suor Orsola Benincasa",
              "country": "Italy",
              "lat": 40.8358,
              "lng": 14.2486,
              "department": "General"
            },
            {
              "name": "Università Degli Studi Di Padova",
              "country": "Italy",
              "lat": 45.4064,
              "lng": 11.8778,
              "department": "General"
            },
            {
              "name": "Via Universita 12",
              "country": "Italy",
              "lat": 44.8015,
              "lng": 10.328,
              "department": "General"
            },
            {
              "name": "Università Degli Studi Di Pavia",
              "country": "Italy",
              "lat": 45.1853,
              "lng": 9.155,
              "department": "General"
            },
            {
              "name": "Università Degli Studi Di Perugia",
              "country": "Italy",
              "lat": 43.1121,
              "lng": 12.3888,
              "department": "General"
            },
            {
              "name": "Universita Di Pisa",
              "country": "Italy",
              "lat": 43.7167,
              "lng": 10.4,
              "department": "General"
            },
            {
              "name": "Università Degli Studi Di Roma La Sapienza",
              "country": "Italy",
              "lat": 41.8931,
              "lng": 12.4828,
              "department": "General"
            },
            {
              "name": "Università Degli Studi Di Roma Tor Vergata",
              "country": "Italy",
              "lat": 41.8931,
              "lng": 12.4828,
              "department": "General"
            },
            {
              "name": "Universita Degli Studi Roma Tre",
              "country": "Italy",
              "lat": 41.8931,
              "lng": 12.4828,
              "department": "General"
            },
            {
              "name": "Universita Degli Studi Di Sassari",
              "country": "Italy",
              "lat": 40.7267,
              "lng": 8.5592,
              "department": "General"
            },
            {
              "name": "Universita Degli Studi Di Siena",
              "country": "Italy",
              "lat": 43.3183,
              "lng": 11.3314,
              "department": "General"
            },
            {
              "name": "University Of Trento",
              "country": "Italy",
              "lat": 46.0667,
              "lng": 11.1167,
              "department": "General"
            },
            {
              "name": "Universita Degli Studi Dell'insubria",
              "country": "Italy",
              "lat": 45.8167,
              "lng": 8.8333,
              "department": "General"
            },
            {
              "name": "Ca' Foscari University Of Venice",
              "country": "Italy",
              "lat": 45.4397,
              "lng": 12.3319,
              "department": "General"
            },
            {
              "name": "Universita Degli Studi Di Verona",
              "country": "Italy",
              "lat": 45.4386,
              "lng": 10.9928,
              "department": "General"
            },
            {
              "name": "Tuscia University",
              "country": "Italy",
              "lat": 42.4186,
              "lng": 12.1042,
              "department": "General"
            },
            {
              "name": "Vytautas Magnus University",
              "country": "Lithuania",
              "lat": 54.9,
              "lng": 23.9333,
              "department": "General"
            },
            {
              "name": "Klaipeda University",
              "country": "Lithuania",
              "lat": 55.7125,
              "lng": 21.135,
              "department": "General"
            },
            {
              "name": "Šiauliai State College",
              "country": "Lithuania",
              "lat": 55.9281,
              "lng": 23.3167,
              "department": "General"
            },
            {
              "name": "Vilniaus Universitetas",
              "country": "Lithuania",
              "lat": 54.6872,
              "lng": 25.28,
              "department": "General"
            },
            {
              "name": "Vilniaus Gedimino Technikos Universitetas",
              "country": "Lithuania",
              "lat": 54.6872,
              "lng": 25.28,
              "department": "General"
            },
            {
              "name": "Universite Du Luxembourg",
              "country": "Luxembourg",
              "lat": 49.6117,
              "lng": 6.1319,
              "department": "General"
            },
            {
              "name": "Nla Hogskolen As",
              "country": "Norway",
              "lat": 60.3925,
              "lng": 5.3233,
              "department": "General"
            },
            {
              "name": "University Of Oslo",
              "country": "Norway",
              "lat": 59.9133,
              "lng": 10.7389,
              "department": "General"
            },
            {
              "name": "Kristiania University College",
              "country": "Norway",
              "lat": 59.9133,
              "lng": 10.7389,
              "department": "General"
            },
            {
              "name": "Universiteit Van Amsterdam",
              "country": "Netherlands",
              "lat": 52.3728,
              "lng": 4.8936,
              "department": "General"
            },
            {
              "name": "Christelijke Hogeschool Ede",
              "country": "Netherlands",
              "lat": 52.0436,
              "lng": 5.6667,
              "department": "General"
            },
            {
              "name": "University Of Twente",
              "country": "Netherlands",
              "lat": 52.2225,
              "lng": 6.8925,
              "department": "General"
            },
            {
              "name": "University Of Groningen",
              "country": "Netherlands",
              "lat": 53.2167,
              "lng": 6.5667,
              "department": "General"
            },
            {
              "name": "Leiden University",
              "country": "Netherlands",
              "lat": 52.16,
              "lng": 4.49,
              "department": "General"
            },
            {
              "name": "Radboud University",
              "country": "Netherlands",
              "lat": 51.8425,
              "lng": 5.8528,
              "department": "General"
            },
            {
              "name": "Erasmus University Rotterdam",
              "country": "Netherlands",
              "lat": 51.92,
              "lng": 4.48,
              "department": "General"
            },
            {
              "name": "Rotterdam University Of Applied Sciences",
              "country": "Netherlands",
              "lat": 51.92,
              "lng": 4.48,
              "department": "General"
            },
            {
              "name": "Instituto Politécnico De Portalegre",
              "country": "Portugal",
              "lat": 39.3167,
              "lng": -7.4167,
              "department": "General"
            },
            {
              "name": "University Of The Azores",
              "country": "Portugal",
              "lat": 37.74,
              "lng": -25.67,
              "department": "General"
            },
            {
              "name": "Universidade Do Minho",
              "country": "Portugal",
              "lat": 41.5503,
              "lng": -8.42,
              "department": "General"
            },
            {
              "name": "University Of Coimbra",
              "country": "Portugal",
              "lat": 40.2111,
              "lng": -8.4289,
              "department": "General"
            },
            {
              "name": "Polytechnic Of Coimbra",
              "country": "Portugal",
              "lat": 40.2111,
              "lng": -8.4289,
              "department": "General"
            },
            {
              "name": "Universidade De Évora",
              "country": "Portugal",
              "lat": 38.5667,
              "lng": -7.9,
              "department": "General"
            },
            {
              "name": "Universidade NOVA De Lisboa",
              "country": "Portugal",
              "lat": 38.7122,
              "lng": -9.134,
              "department": "General"
            },
            {
              "name": "Polytechnic Institute Of Lisbon",
              "country": "Portugal",
              "lat": 38.7122,
              "lng": -9.134,
              "department": "General"
            },
            {
              "name": "University Institute Of Lisbon",
              "country": "Portugal",
              "lat": 38.7122,
              "lng": -9.134,
              "department": "General"
            },
            {
              "name": "Polytechnic Of Porto",
              "country": "Portugal",
              "lat": 41.1495,
              "lng": -8.6108,
              "department": "General"
            },
            {
              "name": "The Polytechnic Institute Of Tomar",
              "country": "Portugal",
              "lat": 39.6,
              "lng": -8.4167,
              "department": "General"
            },
            {
              "name": "Universidade De Trás-Os-Montes E Alto Douro",
              "country": "Portugal",
              "lat": 41.2953,
              "lng": -7.7461,
              "department": "General"
            },
            {
              "name": "Polytechnic Institute Of Viseu",
              "country": "Portugal",
              "lat": 40.6575,
              "lng": -7.9139,
              "department": "General"
            },
            {
              "name": "Bialystok University",
              "country": "Poland",
              "lat": 53.1353,
              "lng": 23.1456,
              "department": "General"
            },
            {
              "name": "University Of Gdansk",
              "country": "Poland",
              "lat": 54.3475,
              "lng": 18.6453,
              "department": "General"
            },
            {
              "name": "Uniwersytet Śląski W Katowicach",
              "country": "Poland",
              "lat": 50.2625,
              "lng": 19.0217,
              "department": "General"
            },
            {
              "name": "Jagiellonian University",
              "country": "Poland",
              "lat": 50.0614,
              "lng": 19.9372,
              "department": "General"
            },
            {
              "name": "The Pedagogical University Of Krakow",
              "country": "Poland",
              "lat": 50.0614,
              "lng": 19.9372,
              "department": "General"
            },
            {
              "name": "University Of Lodz",
              "country": "Poland",
              "lat": 51.7769,
              "lng": 19.4547,
              "department": "General"
            },
            {
              "name": "Maria Curie-Sklodowska University",
              "country": "Poland",
              "lat": 51.25,
              "lng": 22.5667,
              "department": "General"
            },
            {
              "name": "The John Paul II Catholic University Of Lublin",
              "country": "Poland",
              "lat": 51.25,
              "lng": 22.5667,
              "department": "General"
            },
            {
              "name": "Adam Mickiewicz University",
              "country": "Poland",
              "lat": 52.4083,
              "lng": 16.9336,
              "department": "General"
            },
            {
              "name": "University Of Rzeszów",
              "country": "Poland",
              "lat": 50.0333,
              "lng": 22,
              "department": "General"
            },
            {
              "name": "Siedlce University Of Natural Sciences",
              "country": "Poland",
              "lat": 52.165,
              "lng": 22.2714,
              "department": "General"
            },
            {
              "name": "Siedlce University Of Natural Sciences And Humanities",
              "country": "Poland",
              "lat": 52.165,
              "lng": 22.2714,
              "department": "General"
            },
            {
              "name": "University Of Szczecin",
              "country": "Poland",
              "lat": 53.4325,
              "lng": 14.5481,
              "department": "General"
            },
            {
              "name": "University Of Applied Sciences In Tarnow",
              "country": "Poland",
              "lat": 50.0125,
              "lng": 20.9886,
              "department": "General"
            },
            {
              "name": "Nicolaus Copernicus University In Toruń",
              "country": "Poland",
              "lat": 53.0222,
              "lng": 18.6111,
              "department": "General"
            },
            {
              "name": "University Of Warsaw",
              "country": "Poland",
              "lat": 52.23,
              "lng": 21.0111,
              "department": "General"
            },
            {
              "name": "Warsaw University Of Technology",
              "country": "Poland",
              "lat": 52.23,
              "lng": 21.0111,
              "department": "General"
            },
            {
              "name": "University Of Wrocław",
              "country": "Poland",
              "lat": 51.11,
              "lng": 17.0325,
              "department": "General"
            },
            {
              "name": "University Of Alba Iulia",
              "country": "Romania",
              "lat": 46.0669,
              "lng": 23.57,
              "department": "General"
            },
            {
              "name": "University Of Bucharest",
              "country": "Romania",
              "lat": 44.4325,
              "lng": 26.1039,
              "department": "General"
            },
            {
              "name": "Ovidius University Of Constanta",
              "country": "Romania",
              "lat": 44.1667,
              "lng": 28.6333,
              "department": "General"
            },
            {
              "name": "Universitatea Din Craiova",
              "country": "Romania",
              "lat": 44.3333,
              "lng": 23.8167,
              "department": "General"
            }
          ]
        },
        {
          "name": "Medicine",
          "partners": [
            {
              "name": "Medizinische Universitat Graz",
              "country": "Austria",
              "lat": 47.0708,
              "lng": 15.4386,
              "department": "Medicine"
            },
            {
              "name": "University Of Medicine -Pleven",
              "country": "Bulgaria",
              "lat": 43.4167,
              "lng": 24.6167,
              "department": "Medicine"
            },
            {
              "name": "Medical University Sofia",
              "country": "Bulgaria",
              "lat": 42.6979,
              "lng": 23.3217,
              "department": "Medicine"
            },
            {
              "name": "Medizinische Hochschule Hannover",
              "country": "Germany",
              "lat": 52.3667,
              "lng": 9.7167,
              "department": "Medicine"
            },
            {
              "name": "Semmelweis Egyetem",
              "country": "Hungary",
              "lat": 47.4983,
              "lng": 19.0408,
              "department": "Medicine"
            },
            {
              "name": "Royal College Of Surgeons In Ireland",
              "country": "Ireland",
              "lat": 53.3497,
              "lng": -6.2603,
              "department": "Medicine"
            },
            {
              "name": "Medical University Of Warsaw",
              "country": "Poland",
              "lat": 52.23,
              "lng": 21.0111,
              "department": "Medicine"
            },
            {
              "name": "Universitatea De Medicina Si Farmacie Carol Davila",
              "country": "Romania",
              "lat": 44.4325,
              "lng": 26.1039,
              "department": "Medicine"
            }
          ]
        },
        {
          "name": "Education",
          "partners": [
            {
              "name": "Kirchliche Paedagogische Hochschule Wien",
              "country": "Austria",
              "lat": 48.2083,
              "lng": 16.3725,
              "department": "Education"
            }
          ]
        },
        {
          "name": "Arts",
          "partners": [
            {
              "name": "MUK - Music And Arts Private University",
              "country": "Austria",
              "lat": 48.2083,
              "lng": 16.3725,
              "department": "Music and Arts"
            },
            {
              "name": "Folkwang University Of The Arts",
              "country": "Germany",
              "lat": 51.4508,
              "lng": 7.0131,
              "department": "Arts"
            },
            {
              "name": "Accademia Di Belle Arti L'aquila",
              "country": "Italy",
              "lat": 42.354,
              "lng": 13.392,
              "department": "Fine Arts"
            },
            {
              "name": "Accademia Della Moda",
              "country": "Italy",
              "lat": 40.8358,
              "lng": 14.2486,
              "department": "Fashion"
            },
            {
              "name": "Accademia Nazionale Di Danza",
              "country": "Italy",
              "lat": 41.8931,
              "lng": 12.4828,
              "department": "Dance"
            },
            {
              "name": "Latvian Academy Of Culture",
              "country": "Latvia",
              "lat": 56.9475,
              "lng": 24.1069,
              "department": "Culture and Arts"
            }
          ]
        },
        {
          "name": "Music",
          "partners": [
            {
              "name": "Conservatoire Royal De Bruxelles",
              "country": "Belgium",
              "lat": 50.8467,
              "lng": 4.3525,
              "department": "Music"
            },
            {
              "name": "National Academy Of Music Prof. Pancho Vladigerov",
              "country": "Bulgaria",
              "lat": 42.6979,
              "lng": 23.3217,
              "department": "Music"
            },
            {
              "name": "Hochschule Fur Musik Und Tanz Koln",
              "country": "Germany",
              "lat": 50.9364,
              "lng": 6.9528,
              "department": "Music"
            },
            {
              "name": "Hochschule Für Katholische Kirchenmusik Regensburg",
              "country": "Germany",
              "lat": 49.0167,
              "lng": 12.0833,
              "department": "Music"
            },
            {
              "name": "Escuela Superior De Canto",
              "country": "Spain",
              "lat": 40.4169,
              "lng": -3.7033,
              "department": "Music"
            },
            {
              "name": "Conservatorio Superior De Música De Vigo",
              "country": "Spain",
              "lat": 42.2314,
              "lng": -8.7124,
              "department": "Music"
            },
            {
              "name": "Estonian Academy Of Music And Theatre",
              "country": "Estonia",
              "lat": 59.4372,
              "lng": 24.7453,
              "department": "Music"
            },
            {
              "name": "Conservatorio Di Musica A. Vivaldi",
              "country": "Italy",
              "lat": 44.9133,
              "lng": 8.62,
              "department": "Music"
            },